City,Lat,Lng,Max Temp,Humidity,Cloudiness,Wind Speed,Country,Date
Ribeira Grande,38.5167,-28.7,15.22,67,40,2.57,PT,1644782521
Severo-Kuril'sk,50.6789,156.125,-5.6,70,36,4.57,RU,1644782652
Isangel,-19.55,169.2667,26.06,94,40,2.06,VU,1644782396
San Patricio,28.017,-97.5169,18.42,22,0,3.1,US,1644782652
Hūn,29.1268,15.9477,13.21,38,0,4.36,LY,1644782562
Ushuaia,-54.8,-68.3,4.81,81,75,16.98,AR,1644782652
College,64.8569,-147.8028,-9.56,82,100,0.0,US,1644782653
Santa Cruz de la Sierra,-17.8,-63.1667,28.52,45,94,3.8,BO,1644782405
Khatanga,71.9667,102.5,-31.32,93,83,1.24,RU,1644782467
Shahreza,32.0339,51.8794,4.64,52,0,2.16,IR,1644782653
Carnarvon,-24.8667,113.6333,24.04,88,3,1.54,AU,1644782654
Avarua,-21.2078,-159.775,27.03,78,100,2.06,CK,1644782654
Ojinaga,29.5667,-104.4167,17.54,30,0,2.06,MX,1644782365
Cidreira,-30.1811,-50.2056,21.29,91,100,3.44,BR,1644782559
Castro,-24.7911,-50.0119,27.58,52,6,1.3,BR,1644782477
Rikitea,-23.1203,-134.9692,25.7,72,76,5.41,PF,1644782655
Namatanai,-3.6667,152.4333,25.94,80,100,1.85,PG,1644782655
Hithadhoo,-0.6,73.0833,27.86,75,67,4.23,MV,1644782477
Hilo,19.7297,-155.09,25.69,83,3,1.79,US,1644782463
Jiaxing,30.7522,120.75,6.12,87,1,2.7,CN,1644782655
Saint-François,46.4154,3.9054,9.26,65,0,8.75,FR,1644782656
Atar,20.5169,-13.0499,22.1,17,100,4.05,MR,1644782656
Ende,-8.8432,121.6623,24.91,84,80,0.56,ID,1644782656
Atuona,-9.8,-139.0333,25.3,79,24,6.59,PF,1644782657
Avera,33.194,-82.5271,15.38,23,13,7.66,US,1644782657
Ouésso,1.6136,16.0517,25.88,29,99,0.27,CG,1644782657
Comodoro Rivadavia,-45.8667,-67.5,27.92,32,40,7.72,AR,1644782484
Orleans,30.0335,-89.9501,13.92,34,0,8.23,US,1644782657
Saddiqabad,28.3062,70.1307,17.04,24,0,4.33,PK,1644782658
Mar del Plata,-38.0023,-57.5575,19.93,60,7,3.58,AR,1644782488
Lebyazh'ye,55.2689,66.4947,-16.17,98,100,2.39,RU,1644782658
Grand-Lahou,5.1367,-5.0242,25.84,86,100,2.32,CI,1644782659
Cabo San Lucas,22.8909,-109.9124,29.61,56,75,3.6,MX,1644782659
Chālūs,36.655,51.4204,8.71,83,100,2.72,IR,1644782659
Narsaq,60.9167,-46.05,-4.26,90,100,3.13,GL,1644782660
Cape Town,-33.9258,18.4232,20.71,83,10,3.13,ZA,1644782660
Laredo,27.5064,-99.5075,18.0,18,0,2.57,US,1644782660
Balotra,25.8333,72.2333,18.2,21,0,1.93,IN,1644782660
Bengkulu,-3.8004,102.2655,24.56,89,100,1.77,ID,1644782661
Tasiilaq,65.6145,-37.6368,-6.91,71,100,4.42,GL,1644782661
Barrow,71.2906,-156.7887,-30.65,100,100,3.64,US,1644782401
Bluff,-46.6,168.3333,9.89,87,9,2.73,NZ,1644782469
Talnakh,69.4865,88.3972,-21.81,70,17,4.09,RU,1644782661
Bredasdorp,-34.5322,20.0403,20.16,80,92,6.05,ZA,1644782497
Provideniya,64.3833,-173.3,-25.82,95,19,1.41,RU,1644782531
Jamestown,42.097,-79.2353,-5.38,39,100,1.34,US,1644782563
Thompson,55.7435,-97.8558,-18.08,86,100,1.77,CA,1644782463
Hermanus,-34.4187,19.2345,23.28,83,26,7.25,ZA,1644782461
Moree,-29.4667,149.85,17.01,72,0,3.6,AU,1644782722
Katherine,-14.4667,132.2667,25.18,83,65,1.54,AU,1644782722
Punta Arenas,-53.15,-70.9167,10.06,50,40,13.89,CL,1644782723
Forbes,-33.3833,148.0167,19.4,64,100,2.3,AU,1644782723
Koshurnikovo,54.1667,93.3,-26.39,99,18,1.51,RU,1644782723
Saint Paul Harbor,57.79,-152.4072,2.73,70,0,0.0,US,1644782724
Porto Velho,-8.7619,-63.9039,29.03,70,40,2.06,BR,1644782698
Talaya,61.3833,152.75,-40.63,100,81,0.65,RU,1644782724
Christchurch,-43.5333,172.6333,12.78,89,75,3.09,NZ,1644782709
Dikson,73.5069,80.5464,-20.05,87,100,11.33,RU,1644782724
Albany,42.6001,-73.9662,-3.15,53,100,1.34,US,1644782634
Puerto Ayora,-0.7393,-90.3518,26.98,86,87,2.68,EC,1644782725
Okhotsk,59.3833,143.3,-26.0,80,1,4.93,RU,1644782606
Kaeo,-35.1,173.7833,16.85,92,80,2.36,NZ,1644782725
Baykit,61.67,96.37,-27.09,100,96,1.66,RU,1644782725
Hong Kong,22.2855,114.1577,15.69,87,100,4.02,HK,1644782319
Hobart,-42.8794,147.3294,15.92,82,75,4.63,AU,1644782726
Kapaa,22.0752,-159.319,24.51,72,40,6.17,US,1644782695
Saint-Philippe,-21.3585,55.7679,26.77,85,34,3.34,RE,1644782726
Bermeo,43.4209,-2.7215,16.86,65,100,9.88,ES,1644782726
Saint-Augustin,51.226,-58.6502,-16.71,75,1,5.09,CA,1644782524
Windhoek,-22.5594,17.0832,17.28,100,81,1.03,NA,1644782158
Maple Creek,49.9168,-109.4848,5.45,49,71,8.03,CA,1644782727
Mataura,-46.1927,168.8643,9.71,97,27,1.32,NZ,1644782727
Lelystad,52.5083,5.475,10.04,72,100,12.96,NL,1644782727
Lüderitz,-26.6481,15.1594,24.01,62,0,5.41,NA,1644782728
Touros,-5.1989,-35.4608,29.5,71,10,5.59,BR,1644782728
Busselton,-33.65,115.3333,17.25,75,0,5.14,AU,1644782728
Vaini,-21.2,-175.2,27.01,76,77,8.24,TO,1644782729
Lebu,-37.6167,-73.65,18.72,72,84,5.2,CL,1644782729
Prado,-17.3411,-39.2208,26.14,78,66,4.87,BR,1644782729
Ha Giang,22.8333,104.9833,14.21,95,92,0.54,VN,1644782730
Pevek,69.7008,170.3133,-27.46,98,100,3.97,RU,1644782730
La Ronge,55.1001,-105.2842,-10.97,84,100,4.65,CA,1644782550
Saint George,37.1041,-113.5841,21.31,18,0,0.89,US,1644782585
Gizo Government Station,-8.103,156.8419,27.02,79,65,1.99,SB,1644782730
Torres,-29.3353,-49.7269,24.9,93,88,2.62,BR,1644782697
Tuktoyaktuk,69.4541,-133.0374,-36.25,99,57,1.43,CA,1644782731
Mahébourg,-20.4081,57.7,27.36,84,86,6.06,MU,1644782457
Husavik,66.0449,-17.3389,-11.96,80,71,6.28,IS,1644782731
Port Alfred,-33.5906,26.891,22.72,84,96,4.56,ZA,1644782731
Cap-aux-Meules,47.3821,-61.8597,-8.48,70,100,7.38,CA,1644782732
Road Town,18.4167,-64.6167,24.44,78,24,9.55,VG,1644782591
Esperance,-33.8667,121.9,16.44,74,0,4.76,AU,1644782571
Saldanha,-33.0117,17.9442,18.35,90,0,9.02,ZA,1644782792
Kunshan,31.3776,120.9543,5.55,83,0,2.33,CN,1644782792
Kiryat Gat,31.61,34.7642,13.0,100,0,0.33,IL,1644782760
Hamada,34.8833,132.0833,6.11,77,100,6.61,JP,1644782793
Xichang,27.8964,102.2634,3.69,72,0,0.61,CN,1644782793
Souillac,-20.5167,57.5167,27.42,87,95,5.44,MU,1644782793
Vyazemskiy,47.5378,134.7525,-14.64,97,100,0.24,RU,1644782794
Vostok,46.4856,135.8833,-16.28,98,100,0.53,RU,1644782794
Nālūt,30.3333,10.85,13.74,25,43,5.02,LY,1644782701
Sørland,67.667,12.6934,0.92,59,100,11.55,NO,1644782794
Mount Gambier,-37.8333,140.7667,15.95,88,100,4.63,AU,1644782791
Pangkalanbuun,-2.6833,111.6167,23.71,96,100,0.96,ID,1644782795
Payo,-3.7508,103.6372,22.43,97,95,0.63,ID,1644782795
Butaritari,3.0707,172.7902,27.65,75,52,5.64,KI,1644782795
Sakata,38.9167,139.855,-0.81,76,95,2.87,JP,1644782795
Umluj,25.0213,37.2685,20.1,36,0,6.95,SA,1644782512
Ankang,32.68,109.0172,6.92,65,13,0.94,CN,1644782796
Jaguaribe,-5.8906,-38.6219,33.53,35,73,3.49,BR,1644782796
Langenzenn,49.5,10.8,5.96,72,0,4.12,DE,1644782796
Senanga,-16.1167,23.2667,21.72,74,69,0.69,ZM,1644782797
Yellowknife,62.456,-114.3525,-24.21,79,91,2.01,CA,1644782797
Boa Vista,2.8197,-60.6733,32.99,40,40,7.2,BR,1644782797
Oodweyne,9.4092,45.064,18.96,44,94,5.1,SO,1644782798
Seddon,-37.8068,144.8916,21.79,69,0,1.54,AU,1644782798
Lamar,33.6668,-95.5836,16.31,26,0,6.69,US,1644782798
Santa Rosa,14.3122,121.1114,25.62,89,100,3.16,PH,1644782735
Faya,18.3851,42.4509,13.29,41,69,1.78,SA,1644782799
Senno,59.5336,33.9167,-2.12,94,100,5.21,RU,1644782799
Olafsvik,64.8945,-23.7142,-1.22,93,100,4.87,IS,1644782799
Bethel,41.3712,-73.414,-0.45,70,100,5.81,US,1644782799
Bayjī,34.9311,43.487,13.41,35,2,3.52,IQ,1644782800
Shubarshi,48.5872,57.1869,-10.21,96,79,6.01,KZ,1644782800
Bayir,37.2687,28.2167,5.29,90,17,1.54,TR,1644782800
Tautira,-17.7333,-149.15,30.01,76,91,7.22,PF,1644782801
Qaanaaq,77.484,-69.3632,-22.12,89,100,1.32,GL,1644782801
Faanui,-16.4833,-151.75,27.12,74,100,6.83,PF,1644782802
Nikolskoye,59.7035,30.7861,1.04,89,100,5.79,RU,1644782802
Westport,41.1415,-73.3579,0.15,77,100,4.12,US,1644782582
Airai,-8.9266,125.4092,14.71,90,37,0.86,TL,1644782802
Hasaki,35.7333,140.8333,2.22,92,100,14.86,JP,1644782803
Kabo,7.6994,18.629,27.44,14,100,2.58,CF,1644782803
Arraial do Cabo,-22.9661,-42.0278,26.92,78,40,6.69,BR,1644782803
Acaraú,-2.8856,-40.12,28.04,72,8,6.8,BR,1644782804
Sola,-13.8833,167.55,27.84,77,100,8.39,VU,1644782804
Nioro,13.35,-15.75,28.57,10,27,3.32,GM,1644782804
Cardonal,20.6,-99.1333,4.89,91,100,2.37,MX,1644782805
Vila Franca do Campo,37.7167,-25.4333,16.22,74,2,2.38,PT,1644782805
Leningradskiy,69.3833,178.4167,-26.75,93,97,2.64,RU,1644782751
Norman Wells,65.282,-126.8329,-21.29,93,100,3.07,CA,1644782865
Jönköping,57.7814,14.1562,3.55,100,100,5.66,SE,1644782866
Katsuura,35.1333,140.3,3.39,97,100,13.84,JP,1644782866
Peniche,39.3558,-9.3811,13.71,95,10,7.84,PT,1644782572
Quepos,9.4236,-84.1652,34.33,61,6,3.02,CR,1644782866
Barra de Tecoanapa,16.5167,-98.75,29.51,50,66,5.46,MX,1644782867
George Town,5.4112,100.3354,26.61,87,40,0.0,MY,1644782451
New Norfolk,-42.7826,147.0587,15.72,71,90,0.44,AU,1644782867
Saskylakh,71.9167,114.0833,-27.0,86,26,1.44,RU,1644782867
Guánica,17.9716,-66.908,29.17,61,9,3.58,PR,1644782867
Gornopravdinsk,60.05,69.9,-14.75,96,100,1.43,RU,1644782868
Port Elizabeth,-33.918,25.5701,21.26,85,76,4.84,ZA,1644782747
Coquimbo,-29.9533,-71.3436,20.69,68,5,3.3,CL,1644782565
Rio Grande,-32.035,-52.0986,27.06,44,0,6.83,BR,1644782710
Ancud,-41.8697,-73.8203,26.24,72,24,2.71,CL,1644782868
Khalkhāl,37.6189,48.5258,-6.83,93,51,3.38,IR,1644782868
Tharād,24.3961,71.6267,15.71,36,0,1.16,IN,1644782869
Caravelas,-17.7125,-39.2481,26.52,76,90,4.35,BR,1644782869
Salalah,17.0151,54.0924,25.05,25,0,2.06,OM,1644782869
Port-Gentil,-0.7193,8.7815,27.19,78,100,2.25,GA,1644782870
Shahdad Kot,27.8477,67.9055,17.71,25,0,3.79,PK,1644782870
Tutóia,-2.7619,-42.2744,29.99,72,9,5.22,BR,1644782870
Iqaluit,63.7506,-68.5145,-26.84,75,100,1.34,CA,1644782871
Bambous Virieux,-20.3428,57.7575,27.34,83,81,6.13,MU,1644782871
Adrar,20.5022,-10.0711,18.9,19,46,4.55,MR,1644782871
Broome,42.2506,-75.833,-4.24,60,100,3.6,US,1644782871
Tūkrah,32.5341,20.5791,12.17,76,0,1.11,LY,1644782872
Normandin,48.8333,-72.5321,-18.22,73,100,1.1,CA,1644782872
Kamina,-8.7386,24.9906,18.35,94,100,3.28,CD,1644782873
Narasannapeta,18.4167,84.05,18.64,55,13,2.07,IN,1644782873
Rio Branco do Sul,-25.19,-49.3142,29.34,46,78,0.27,BR,1644782873
Rawson,-43.3002,-65.1023,32.08,21,0,8.89,AR,1644782874
Velagići,44.5572,16.7317,-1.54,87,3,1.93,BA,1644782874
Gbarnga,6.9956,-9.4722,27.94,57,96,2.69,LR,1644782874
Emba,48.8264,58.1442,-11.51,98,54,3.95,KZ,1644782875
Wallaceburg,42.593,-82.3885,-6.0,58,100,2.67,CA,1644782862
Aldan,58.6031,125.3894,-30.78,100,99,1.17,RU,1644782875
Goderich,43.7501,-81.7165,-7.83,75,100,0.47,CA,1644782446
Klaksvík,62.2266,-6.589,1.51,66,100,13.56,FO,1644782875
Pemangkat,1.1667,108.9667,25.72,86,97,0.78,ID,1644782876
Beloha,-25.1667,45.05,24.35,87,29,6.58,MG,1644782876
Belyy Yar,53.6039,91.3903,-32.06,83,87,1.0,RU,1644782876
Torbay,47.6666,-52.7314,5.42,65,95,4.02,CA,1644782599
Tura,25.5198,90.2201,12.44,70,0,2.05,IN,1644782660
Mumbai,19.0144,72.8479,23.99,73,20,1.54,IN,1644782831
Hearst,49.6835,-83.6665,-16.07,69,100,1.77,CA,1644782821
Chui,-33.6971,-53.4616,22.5,40,1,6.2,UY,1644782937
Yar-Sale,66.8333,70.8333,-24.46,94,100,4.06,RU,1644782937
Lima,-12.0432,-77.0282,25.22,84,0,6.17,PE,1644782777
Punta Alta,-38.8759,-62.0736,29.9,23,0,3.75,AR,1644782938
Bitung,1.4451,125.1824,22.47,83,52,1.58,ID,1644782938
Aden,12.7794,45.0367,24.76,69,24,3.53,YE,1644782939
Tilichiki,60.4667,166.1,-28.62,93,7,4.4,RU,1644782939
Buenos Aires,-34.6132,-58.3772,27.22,33,0,2.57,AR,1644782673
Puerto Lumbreras,37.5633,-1.8097,12.21,88,43,0.81,ES,1644782939
Izyum,49.2088,37.2485,-7.11,97,7,1.32,UA,1644782939
Sinnamary,5.3833,-52.95,26.0,86,67,4.28,GF,1644782940
Colac,-38.3333,143.5833,16.35,68,6,1.29,AU,1644782940
Centralia,46.7162,-122.9543,15.59,55,0,3.6,US,1644782940
Ostrovnoy,68.0531,39.5131,-9.08,66,100,7.74,RU,1644782941
Ambon City,-3.6954,128.1814,25.08,88,40,2.57,ID,1644782941
Genhe,50.7833,121.5167,-27.52,100,84,0.97,CN,1644782941
Chokurdakh,70.6333,147.9167,-20.14,96,100,4.69,RU,1644782942
Lavrentiya,65.5833,-171.0,-30.0,93,25,1.28,RU,1644782942
Saint-Joseph,-21.3667,55.6167,26.21,84,16,3.97,RE,1644782942
Guarujá,-23.9931,-46.2564,30.78,26,53,0.89,BR,1644782943
Nemuro,43.3236,145.575,-2.92,85,99,4.36,JP,1644782892
Wewak,-3.5534,143.6268,25.22,88,100,2.03,PG,1644782943
Meadow Lake,34.8014,-106.5436,13.43,18,0,2.6,US,1644782342
Bandarbeyla,9.4942,50.8122,24.02,65,16,8.21,SO,1644782943
Srednekolymsk,67.45,153.6833,-36.37,99,18,2.71,RU,1644782944
Pakokku,21.3333,95.1,17.77,39,8,1.28,MM,1644782944
Gambēla,8.25,34.5833,29.93,38,15,1.63,ET,1644782944
Cherskiy,68.75,161.3,-29.45,97,100,3.55,RU,1644782945
Alofi,-19.0595,-169.9187,27.94,74,40,4.63,NU,1644782945
Riberalta,-10.9833,-66.1,26.35,89,100,1.32,BO,1644782945
Kampot,10.6167,104.1833,27.03,81,14,2.26,KH,1644782946
The Valley,18.217,-63.0578,24.9,76,28,10.7,AI,1644782946
Paita,-5.0892,-81.1144,30.31,66,5,7.53,PE,1644782946
Tiksi,71.6872,128.8694,-24.97,93,11,5.29,RU,1644782947
Edd,13.9297,41.6925,25.34,76,57,1.88,ER,1644782947
Sambava,-14.2667,50.1667,24.85,86,49,1.57,MG,1644782947
Nouadhibou,20.931,-17.0347,18.98,70,100,9.43,MR,1644782947
Port Lincoln,-34.7333,135.8667,18.86,85,92,4.46,AU,1644782948
East London,-33.0153,27.9116,23.08,82,71,3.72,ZA,1644782717
Ponta do Sol,32.6667,-17.1,18.37,72,96,1.04,PT,1644782948
Elko,41.0002,-115.5012,12.81,41,0,2.68,US,1644782948
Coolum Beach,-26.5333,153.1,20.19,97,34,4.85,AU,1644782949
Cabedelo,-6.9811,-34.8339,29.37,71,10,5.09,BR,1644782949
Almaznyy,48.0448,40.045,-2.92,89,5,1.97,RU,1644783010
Jever,53.5833,7.9,8.34,61,100,9.68,DE,1644783010
Dhidhdhoo,6.8833,73.1,25.86,83,100,4.09,MV,1644783010
Krasnoural'sk,58.3638,60.0407,-8.91,96,100,2.29,RU,1644783010
Diffa,13.3154,12.6113,23.09,11,0,2.79,NE,1644783011
Kaitangata,-46.2817,169.8464,10.0,86,16,1.28,NZ,1644783011
Salinópolis,-0.6136,-47.3561,26.06,85,100,3.46,BR,1644783011
Anadyr,64.75,177.4833,-40.04,99,85,3.06,RU,1644783012
Qaqortoq,60.7167,-46.0333,-3.65,88,100,3.68,GL,1644782977
Havelock,34.8791,-76.9013,8.13,89,100,0.89,US,1644783012
Portland,45.5234,-122.6762,16.64,45,20,2.57,US,1644782582
Seoul,37.5683,126.9778,-0.31,74,21,1.2,KR,1644782722
Amapá,1.0,-52.0,26.19,93,100,1.57,BR,1644783012
Vanimo,-2.6741,141.3028,25.22,89,99,2.49,PG,1644783013
Nanortalik,60.1432,-45.2371,-1.65,80,100,4.21,GL,1644783013
Burns Lake,54.2331,-125.7533,2.27,87,100,0.5,CA,1644783013
Kalevala,65.2,31.1667,-1.72,97,100,4.62,RU,1644783014
São João da Barra,-21.6403,-41.0511,27.05,85,11,5.75,BR,1644783014
Kyaikto,17.3,97.0167,19.58,33,97,2.2,MM,1644783014
Sioux Lookout,50.1001,-91.917,-17.39,76,100,2.95,CA,1644783015
High Rock,26.6208,-78.2833,22.01,87,100,6.51,BS,1644783015
Aksu,41.1231,80.2644,-1.65,40,8,1.93,CN,1644783015
Teya,60.3778,92.6267,-27.23,100,22,1.51,RU,1644783016
Tsimmerbude,54.675,20.1347,2.03,73,100,7.39,RU,1644783016
Birobidzhan,48.8,132.95,-12.66,97,100,0.93,RU,1644783016
Rock Springs,41.5875,-109.2029,8.69,21,0,10.29,US,1644782961
Jalu,29.0331,21.5482,13.86,48,81,3.33,LY,1644783017
Nelson Bay,-32.7167,152.15,18.86,72,100,4.24,AU,1644783017
Karratha,-20.7377,116.8463,28.9,63,84,3.35,AU,1644783018
Liverpool,53.4106,-2.9779,8.97,90,40,4.63,GB,1644782772
Anloga,5.7947,0.8973,27.62,81,64,5.04,GH,1644783018
Pīpār,26.3856,73.5378,16.71,30,0,3.43,IN,1644783018
Mayumba,-3.432,10.6554,25.73,87,100,2.08,GA,1644783018
Rome,43.2128,-75.4557,-5.19,60,100,2.57,US,1644783019
Mapiripán,2.8892,-72.1256,35.12,30,100,4.07,CO,1644783019
Nanyamba,-10.6833,39.8333,22.45,98,72,1.45,TZ,1644783019
Nizhniy Odes,63.6445,54.856,-19.22,100,100,1.3,RU,1644783020
Tuatapere,-46.1333,167.6833,9.9,83,11,1.82,NZ,1644783020
Mazamari,-11.3258,-74.5308,28.72,60,94,0.88,PE,1644783020
Udachny,66.4167,112.4,-29.97,94,63,0.8,RU,1644783021
Srandakan,-7.9386,110.2506,16.52,93,100,2.64,ID,1644783021
São Filipe,14.8961,-24.4956,24.22,59,52,5.15,CV,1644783021
Registro,-24.4875,-47.8436,30.08,51,1,2.46,BR,1644782915
Longyearbyen,78.2186,15.6401,-9.09,86,75,1.54,SJ,1644783021
Yoichi,43.2039,140.7703,-0.68,89,99,8.53,JP,1644783022
Haines Junction,60.7522,-137.5108,-9.03,94,100,0.57,CA,1644783022
Kieta,-6.2167,155.6333,26.01,83,90,0.39,PG,1644783022
Beringovskiy,63.05,179.3167,-33.18,97,14,3.08,RU,1644783023
Berlevåg,70.8578,29.0864,-6.03,73,75,5.14,NO,1644783023
Opuwo,-18.0607,13.84,21.1,84,99,4.09,NA,1644783083
Tambacounda,13.7539,-13.7586,28.0,11,3,3.37,SN,1644783084
Kavieng,-2.5744,150.7967,27.08,78,96,3.04,PG,1644782971
Padang,-0.9492,100.3543,24.72,84,100,1.79,ID,1644783084
Maniitsoq,65.4167,-52.9,-16.1,87,100,7.03,GL,1644783084
Puerto Maldonado,-12.6,-69.1833,29.22,65,40,2.06,PE,1644783085
Znamenskoye,57.1281,73.8282,-14.13,97,100,1.78,RU,1644783085
Edirne,41.6772,26.556,2.24,84,56,2.8,TR,1644783029
Tabou,4.423,-7.3528,25.82,84,47,3.39,CI,1644783085
Okha,53.5739,142.9478,-24.16,96,19,4.11,RU,1644783085
Murray Bridge,-35.1167,139.2667,20.94,86,1,3.09,AU,1644783086
Sitka,57.0531,-135.33,2.94,75,100,0.0,US,1644782949
Nuuk,64.1835,-51.7216,-13.66,78,75,3.6,GL,1644783086
Sabaudia,41.3003,13.0282,12.72,89,100,2.91,IT,1644783086
Altagracia de Orituco,9.8601,-66.3814,30.1,42,81,4.72,VE,1644783087
Manyana,-23.4,21.7167,26.35,32,94,2.44,BW,1644783087
Margate,51.3813,1.3862,9.98,86,100,5.81,GB,1644782935
Gejiu,23.306,103.1635,4.46,93,35,1.48,CN,1644783087
Salaga,8.5508,-0.5188,29.98,46,5,2.0,GH,1644783088
Pachino,36.7186,15.0907,12.02,82,34,3.38,IT,1644783088
Vao,-22.6667,167.4833,26.43,85,100,3.51,NC,1644783088
Zajas,41.6072,20.9383,4.64,99,100,1.28,MK,1644783089
Donji Milanovac,44.4627,22.1523,2.64,68,88,3.12,RS,1644783089
Sangamner,19.5667,74.2167,19.7,49,0,2.3,IN,1644783089
Praia da Vitória,38.7333,-27.0667,14.31,70,97,3.16,PT,1644782969
Merke,42.8728,73.1786,-0.85,78,100,2.43,KZ,1644783090
Dingle,10.9995,122.6711,23.49,93,91,2.85,PH,1644782969
Sotouboua,8.5667,0.9833,28.01,48,76,1.93,TG,1644783090
Bilma,18.6853,12.9164,21.02,11,0,2.95,NE,1644783044
Douglas,41.3,-96.167,-2.44,44,0,4.12,US,1644782931
Lakefield,43.6775,-95.1717,-9.5,64,0,4.63,US,1644783090
Almargem do Bispo,38.8491,-9.2668,13.09,87,40,4.12,PT,1644783091
Ruíz,21.95,-105.15,32.78,9,97,1.21,MX,1644783091
Acapulco de Juárez,16.8634,-99.8901,30.9,62,20,3.6,MX,1644782868
Wajima,37.4,136.9,3.83,67,85,8.94,JP,1644783091
Mangai,-4.05,19.5333,20.86,97,100,0.65,CD,1644783092
Albert Lea,43.648,-93.3683,-13.34,66,0,0.0,US,1644782916
Constitución,-35.3333,-72.4167,19.99,70,53,4.16,CL,1644783092
Vuktyl,63.8567,57.3094,-15.4,98,100,1.54,RU,1644783092
Codrington,-38.2667,141.9667,15.48,89,61,3.03,AU,1644783092
Tomatlán,19.9333,-105.25,34.66,23,100,4.41,MX,1644783093
Emmen,52.7792,6.9069,9.29,73,100,8.94,NL,1644783093
Sangar,63.9242,127.4739,-38.44,100,46,0.96,RU,1644783093
Uarini,-2.99,-65.1083,30.97,89,89,1.59,BR,1644783094
Qeshm,26.9581,56.2719,15.93,65,99,2.9,IR,1644783094
Gorontalo,0.5412,123.0595,22.83,93,97,0.83,ID,1644783094
Kaniama,-7.5667,24.1833,19.23,98,100,1.75,CD,1644783154
Junín,-34.5838,-60.9433,27.26,24,0,2.13,AR,1644783052
Barra Velha,-26.6322,-48.6847,31.16,55,2,4.25,BR,1644783155
Bud,39.447,-86.1758,-2.92,83,100,3.97,US,1644783155
Luau,-10.7073,22.2247,17.45,93,100,0.68,AO,1644783155
Bulgan,48.8125,103.5347,-26.23,99,100,0.62,MN,1644783156
Briançon,44.9,6.65,-0.39,90,48,1.76,FR,1644783156
Fortuna,40.5982,-124.1573,9.19,54,84,1.71,US,1644783116
Buy,58.4786,41.53,-4.4,96,100,3.36,RU,1644783156
Brae,60.3964,-1.353,3.95,88,100,5.03,GB,1644783157
Taywarah,33.35,64.4167,-6.03,80,94,1.7,AF,1644783068
Buraidah,26.326,43.975,12.93,27,0,3.06,SA,1644782975
Aykhal,66.0,111.5,-22.65,50,15,0.43,RU,1644783157
Agirish,61.9247,63.0231,-20.32,100,94,0.81,RU,1644783157
Kudahuvadhoo,2.6708,72.8944,27.53,78,100,4.84,MV,1644783158
Chernyshevskiy,63.0128,112.4714,-31.06,100,66,0.68,RU,1644783158
Flinders,-34.5833,150.8552,17.81,89,100,2.24,AU,1644783158
Zhaotong,27.3167,103.7167,1.53,92,10,1.9,CN,1644783158
Mil'kovo,54.7167,158.6167,-16.48,98,100,0.96,RU,1644783159
Marovoay,-16.1,46.6333,24.7,91,63,1.07,MG,1644783159
Porgera,-5.4667,143.2,6.93,99,100,0.16,PG,1644783159
Cururupu,-1.8283,-44.8683,27.69,70,45,2.43,BR,1644783160
Nara,34.6851,135.8049,6.6,81,100,1.79,JP,1644783160
Imeni Babushkina,59.7573,43.1285,-9.95,95,100,2.51,RU,1644783160
Parrsboro,45.4001,-64.332,-2.82,53,100,3.58,CA,1644783160
Haverfordwest,51.8017,-4.9691,7.97,92,100,1.79,GB,1644783161
Tomigusuku,26.185,127.675,17.87,94,100,10.8,JP,1644783161
Xining,36.6167,101.7667,-12.07,75,14,1.05,CN,1644783161
Vallenar,-28.5708,-70.7581,29.37,25,0,4.76,CL,1644783162
Hofn,64.2539,-15.2082,-5.88,59,16,4.79,IS,1644783162
Omiš,43.4447,16.6886,8.96,70,19,0.85,HR,1644783162
Mumbwa,-14.9783,27.0619,17.71,93,60,1.33,ZM,1644783163
Sayyan,15.1718,44.3244,11.89,47,12,1.26,YE,1644783163
Kembé,4.6228,21.8865,25.71,24,100,0.81,CF,1644783163
Itupiranga,-5.1347,-49.3267,29.18,91,100,0.5,BR,1644783164
Upernavik,72.7868,-56.1549,-21.55,96,100,6.32,GL,1644783164
Kumul,42.8,93.45,-3.17,51,73,2.5,CN,1644783164
Bosaso,11.2842,49.1816,23.07,72,13,1.14,SO,1644783165
Rafaela,-31.2503,-61.4867,31.67,15,0,0.45,AR,1644783165
Karasjok,69.4719,25.5112,-10.94,96,100,1.14,NO,1644783165
Anapskaya,44.89,37.38,2.63,74,20,5.0,RU,1644783166
Tocopilla,-22.092,-70.1979,22.98,66,90,3.89,CL,1644783113
Cockburn Town,21.4612,-71.1419,25.49,78,0,7.12,TC,1644783166
Muros,42.7762,-9.0603,11.16,72,9,8.17,ES,1644783166
Khovd,48.0056,91.6419,-25.15,81,15,1.38,MN,1644783227
Atasū,48.6814,71.6433,-3.33,96,100,5.46,KZ,1644783227
Elk City,35.412,-99.4043,12.38,21,0,1.78,US,1644783080
Clyde River,70.4692,-68.5914,-30.87,69,75,5.14,CA,1644783227
Lázaro Cárdenas,17.9583,-102.2,29.86,42,64,4.25,MX,1644783228
Wundanyi,-3.4019,38.364,19.71,62,100,1.3,KE,1644783228
Bantou,26.2151,117.4893,8.68,95,100,0.99,CN,1644783228
Huarmey,-10.0681,-78.1522,25.17,69,5,5.55,PE,1644783229
Flin Flon,54.7682,-101.865,-12.49,83,100,3.7,CA,1644783229
Sirumugai,11.3333,77.0167,23.76,73,97,1.03,IN,1644783229
Sabang,5.8933,95.3214,27.56,74,49,3.91,ID,1644783229
Itoman,26.1247,127.6694,18.01,94,100,10.8,JP,1644783230
Makakilo City,21.3469,-158.0858,25.18,64,20,5.66,US,1644783230
Korla,41.7597,86.1469,-1.51,46,0,2.03,CN,1644783230
Seminole,28.7086,-81.2081,24.05,80,100,5.14,US,1644783231
Balkanabat,39.5108,54.3671,5.62,62,28,5.93,TM,1644783231
Teguise,29.0605,-13.564,17.12,72,20,4.63,ES,1644783231
Buala,-8.145,159.5921,26.11,83,99,2.82,SB,1644783231
Alyangula,-13.8483,136.4192,27.42,67,36,3.8,AU,1644783232
Kruisfontein,-34.0033,24.7314,18.46,91,16,3.35,ZA,1644783114
Danville,36.586,-79.395,4.76,93,100,4.63,US,1644783001
Manggar,-2.8833,108.2667,25.13,86,90,0.96,ID,1644783232
Fartura,-23.3883,-49.51,27.63,52,17,1.05,BR,1644783232
Inhambane,-23.865,35.3833,24.81,86,2,3.87,MZ,1644783210
Leh,34.1667,77.5833,-16.07,84,84,0.37,IN,1644783233
Lamu,-2.2717,40.902,26.12,86,66,5.73,KE,1644783233
Hattiesburg,31.3271,-89.2903,12.9,24,0,5.66,US,1644783184
Lompoc,34.6391,-120.4579,30.38,30,0,3.09,US,1644783187
Rockport,28.0206,-97.0544,18.14,30,0,2.57,US,1644783185
Celestún,20.8667,-90.4,23.35,72,85,9.34,MX,1644783233
Kamaishi,39.2667,141.8833,0.4,69,100,1.73,JP,1644782974
Bonthe,7.5264,-12.505,26.01,84,29,3.72,SL,1644783234
Āsosa,10.0667,34.5333,21.76,26,40,1.92,ET,1644783234
Geraldton,-28.7667,114.6,23.23,83,100,0.0,AU,1644783129
Malakal,9.5334,31.6605,29.03,16,0,3.47,SS,1644783234
Coyhaique,-45.5752,-72.0662,27.34,34,0,3.09,CL,1644783235
Batagay,67.6333,134.6333,-31.12,93,96,1.38,RU,1644783235
Krasnosel'kup,65.7,82.4667,-18.78,92,62,5.81,RU,1644783235
Pathein,16.7833,94.7333,17.3,82,30,2.77,MM,1644783236
Pangnirtung,66.1451,-65.7125,-36.32,97,95,1.74,CA,1644783236
Moscow,55.7522,37.6156,-1.25,86,100,4.39,RU,1644783062
Costa Rica,-23.4167,-54.65,33.3,33,58,1.37,BR,1644783136
Kashan,33.9831,51.4364,10.21,45,0,0.79,IR,1644783236
Opunake,-39.4556,173.8583,16.58,75,76,9.64,NZ,1644783237
Pimentel,-6.8367,-79.9342,27.16,57,0,7.2,PE,1644783237
Salinas,36.6777,-121.6555,27.33,31,0,4.12,US,1644783051
Lorengau,-2.0226,147.2712,26.85,79,100,0.69,PG,1644783237
Poso,-1.3959,120.7524,24.52,85,100,1.98,ID,1644783113
Menongue,-14.6585,17.691,17.77,93,97,1.29,AO,1644783238
Río Gallegos,-51.6226,-69.2181,15.03,20,20,22.12,AR,1644783298
Nabire,-3.3667,135.4833,24.19,92,100,1.59,ID,1644783298
Huamachuco,-7.8,-78.0667,14.1,71,80,2.09,PE,1644783299
Naze,28.3667,129.4833,14.54,90,100,7.94,JP,1644783299
Samarai,-10.6167,150.6667,26.75,75,32,2.62,PG,1644783299
Esil,51.9556,66.4042,-12.87,94,100,2.47,KZ,1644783299
Necochea,-38.5473,-58.7368,21.08,36,1,3.18,AR,1644783297
Iwanai,42.9744,140.5089,-1.35,85,97,4.28,JP,1644783300
Serpneve,46.3009,29.0196,0.19,81,97,3.19,UA,1644783300
French Harbor,16.35,-86.4333,28.0,80,40,4.12,HN,1644783301
Rāvar,31.2656,56.8055,8.03,43,0,3.02,IR,1644783301
Surovikino,48.6078,42.8486,-2.27,92,6,4.04,RU,1644783301
Anori,-3.7728,-61.6442,25.72,95,100,1.01,BR,1644783301
Weinan,34.5036,109.5089,2.83,71,77,2.04,CN,1644783302
Porbandar,21.6422,69.6093,20.08,62,0,4.65,IN,1644783273
Fairbanks,64.8378,-147.7164,-9.55,82,100,0.0,US,1644783302
Balad,34.0164,44.1453,13.79,36,0,4.57,IQ,1644783302
Ulaangom,49.9811,92.0667,-32.3,98,100,0.77,MN,1644783303
Sabha,27.0377,14.4283,13.92,24,0,3.94,LY,1644783303
Vilhena,-12.7406,-60.1458,23.12,88,75,2.57,BR,1644783303
Hawalli,29.2833,47.9972,18.65,42,0,2.68,KW,1644783304
Half Moon Bay,37.4636,-122.4286,25.73,53,0,0.0,US,1644783304
Adré,13.4667,22.2,22.79,11,100,6.65,TD,1644783305
Vardø,70.3705,31.1107,-3.01,59,75,11.32,NO,1644783161
Khudumelapye,-23.8833,24.75,23.34,30,30,3.34,BW,1644783305
Pedreiras,-4.5688,-44.6003,25.71,90,100,0.49,BR,1644783305
Vanderhoof,54.0166,-124.0198,2.56,86,100,1.58,CA,1644783306
Verkhnevilyuysk,63.4453,120.3167,-30.02,100,100,0.91,RU,1644783306
Labuhan,-6.8844,112.2051,24.39,91,100,1.81,ID,1644783306
Kulhudhuffushi,6.6221,73.07,26.56,80,100,4.57,MV,1644783307
Villa de San Francisco,14.1667,-86.9667,31.71,23,3,4.77,HN,1644783307
Gilgit,35.9221,74.3087,0.17,67,100,1.34,PK,1644783307
Campo Verde,-20.4167,-54.0667,33.56,36,94,3.18,BR,1644783179
Chicama,-7.8447,-79.1469,22.3,53,74,5.22,PE,1644783308
Guerrero Negro,27.9769,-114.0611,26.67,21,15,2.15,MX,1644783308
Bakchar,57.0186,82.0711,-10.22,95,100,3.22,RU,1644783308
Amarillo,35.222,-101.8313,15.58,19,0,5.14,US,1644783120
Tabas,33.5959,56.9244,10.07,41,0,3.96,IR,1644783309
Lagoa,39.05,-27.9833,13.57,61,92,2.42,PT,1644783309
Volodarskiy,46.4013,48.5409,-2.03,58,0,4.02,RU,1644783309
Cap Malheureux,-19.9842,57.6142,27.48,78,90,1.34,MU,1644783310
Charter Township of Clinton,42.587,-82.9199,-5.25,80,100,0.89,US,1644783310
Pangody,65.85,74.4859,-25.53,96,85,4.07,RU,1644783310
Presque Isle,46.6811,-68.0159,-12.52,49,0,4.12,US,1644783311
Richards Bay,-28.783,32.0377,24.32,91,44,2.01,ZA,1644783093
Ballina,-28.8667,153.5667,18.21,98,84,3.53,AU,1644783103
Cayenne,4.9333,-52.3333,28.02,83,75,7.2,GF,1644783311
Port-Cartier,50.0334,-66.8654,-14.58,66,62,2.76,CA,1644783311
Kalmunai,7.4167,81.8167,24.46,83,98,2.83,LK,1644783311
Aklavik,68.2191,-135.0107,-29.54,75,75,2.57,CA,1644783312
Texarkana,33.4251,-94.0477,13.28,26,0,5.81,US,1644783312
Tuy Hoa,13.0833,109.3,23.33,92,94,2.15,VN,1644783372
Los Llanos de Aridane,28.6585,-17.9182,16.18,66,20,3.13,ES,1644783373
Boca do Acre,-8.7522,-67.3978,25.94,80,100,2.34,BR,1644783373
Tay Ninh,11.3,106.1,25.26,76,57,2.38,VN,1644783373
Loikaw,19.6742,97.2094,12.65,32,18,1.61,MM,1644783374
Sri Aman,1.2376,111.4621,24.03,100,96,0.0,MY,1644783374
Forestville,38.8451,-76.875,1.34,78,75,6.17,US,1644783374
Boddam,57.4667,-1.7833,6.32,90,100,4.32,GB,1644783375
Moose Factory,51.2585,-80.6094,-16.0,43,0,2.57,CA,1644783375
Port Hedland,-20.3167,118.5667,29.03,74,4,4.63,AU,1644783375
Sedro-Woolley,48.5039,-122.2361,14.07,56,0,0.0,US,1644783245
Bathsheba,13.2167,-59.5167,29.34,61,75,7.72,BB,1644783237
Makkah al Mukarramah,21.4267,39.8261,24.26,38,0,1.1,SA,1644783302
Bani Walid,31.7566,13.9942,13.27,55,32,3.85,LY,1644783376
Orkney,-26.9802,26.6727,22.0,38,45,1.57,ZA,1644783144
Emerald,-23.5333,148.1667,19.63,77,0,4.91,AU,1644783315
Ambilobe,-13.2,49.05,22.95,94,82,0.95,MG,1644783376
Marsá Maţrūḩ,31.3525,27.2453,13.97,66,4,3.58,EG,1644783377
Villa María,-32.4075,-63.2402,26.57,45,0,2.0,AR,1644783377
Dudinka,69.4058,86.1778,-26.06,88,13,3.1,RU,1644783377
Harar,9.3094,42.1258,15.51,63,91,3.72,ET,1644783378
Garmsār,35.2182,52.3409,8.34,49,0,3.23,IR,1644783378
Yangjiang,21.85,111.9667,14.08,85,86,2.59,CN,1644783378
Ossora,59.2353,163.0719,-22.92,79,60,3.37,RU,1644783378
Hambantota,6.1241,81.1185,24.44,81,100,5.05,LK,1644783379
Havre-St-Pierre,50.2334,-63.5986,-15.0,60,0,4.63,CA,1644783379
North Platte,41.1239,-100.7654,13.88,28,0,6.69,US,1644783357
Ilulissat,69.2167,-51.1,-3.99,54,100,8.75,GL,1644783107
Morondava,-20.2833,44.2833,26.79,84,83,1.08,MG,1644783380
Port Macquarie,-31.4333,152.9167,17.72,79,99,0.91,AU,1644783275
Kajaani,64.2273,27.7285,0.03,93,100,4.63,FI,1644783380
Baruun-Urt,46.6806,113.2792,-27.48,99,72,1.04,MN,1644783380
Malaya Purga,56.5567,53.0043,-15.98,100,89,1.99,RU,1644783381
Esim,4.8699,-2.2405,26.33,86,7,3.56,GH,1644783378
Jurm,36.8648,70.8342,1.21,82,100,1.54,AF,1644783381
Kamen'-na-Obi,53.7884,81.3423,-4.96,92,98,7.44,RU,1644783381
Chapadinha,-3.7417,-43.3603,28.56,70,97,2.71,BR,1644783382
Antalaha,-14.9003,50.2788,24.09,91,27,2.11,MG,1644783382
Khanbari,27.3747,87.2039,10.47,68,25,1.51,NP,1644783383
Morro Bay,35.3658,-120.8499,29.58,59,0,2.24,US,1644783383
Carbonia,39.1672,8.5222,11.11,88,6,1.42,IT,1644783383
Āgaro,7.85,36.65,19.66,52,71,1.41,ET,1644783374
Mäntsälä,60.6609,25.2838,1.9,97,100,5.03,FI,1644783384
Tahe,52.3333,124.7333,-19.33,99,100,1.27,CN,1644783384
Miandrivazo,-19.5167,45.4667,25.47,85,85,0.47,MG,1644783384
Tamandaré,-8.7597,-35.1047,28.15,70,7,5.59,BR,1644783385
Ljubuški,43.1969,17.545,4.68,73,38,0.8,BA,1644783385
Pisco,-13.7,-76.2167,26.03,53,0,7.2,PE,1644783276
Mulchén,-37.7167,-72.2333,34.51,13,61,2.63,CL,1644783445
Great Yarmouth,52.6083,1.7305,9.14,89,100,13.49,GB,1644783296
Mossamedes,-15.1961,12.1522,24.18,80,100,1.45,AO,1644783446
Cuamba,-14.8031,36.5372,20.79,98,100,0.77,MZ,1644783446
Evensk,61.95,159.2333,-20.73,73,30,4.08,RU,1644783447
Illapel,-31.6308,-71.1653,25.83,48,0,4.36,CL,1644783369
Roald,62.5833,6.1333,4.39,100,75,1.54,NO,1644783447
Hanzhong,33.0728,107.0303,4.51,78,32,0.8,CN,1644783447
Deputatsky,69.3,139.9,-30.01,96,83,3.03,RU,1644783448
Gagarin,55.5529,34.9954,-4.9,83,96,5.9,RU,1644783448
Ahipara,-35.1667,173.1667,18.16,68,78,4.23,NZ,1644783412
Qingquan,30.4511,115.2559,7.86,69,100,0.22,CN,1644783448
Warri,5.5167,5.75,27.53,76,98,3.26,NG,1644783449
Stephenville,32.2207,-98.2023,18.2,19,0,1.79,US,1644783175
Makat,47.6469,53.3463,-6.18,89,6,5.65,KZ,1644783449
Brownsburg,39.8434,-86.3978,-5.73,77,100,4.63,US,1644783346
Estrela,-28.0611,-50.9383,23.2,72,75,2.94,BR,1644783449
Ayacucho,-13.1583,-74.2239,20.92,40,75,3.6,PE,1644783450
Perth,-31.9333,115.8333,26.1,58,0,6.69,AU,1644783307
Lubao,14.9167,120.55,25.64,89,100,2.36,PH,1644783450
Santa Maria,-29.6842,-53.8069,31.15,18,0,4.92,BR,1644783450
Lakes Entrance,-37.8811,147.981,18.98,68,100,1.94,AU,1644783451
Kalispell,48.1958,-114.3129,6.88,52,0,1.34,US,1644783451
Pinheiro,-2.5214,-45.0825,27.43,78,23,2.17,BR,1644783451
Cabadiangan,9.7531,122.4739,24.4,85,100,2.02,PH,1644783452
Port Blair,11.6667,92.75,23.02,78,20,1.03,IN,1644783452
Ust'-Kut,56.7938,105.7672,-33.94,100,38,1.26,RU,1644783452
Ouro Fino,-22.2831,-46.3692,24.19,79,42,1.32,BR,1644783453
Bontang,0.1333,117.5,25.18,86,94,1.6,ID,1644783453
Beroroha,-21.6667,45.1667,25.97,68,7,0.23,MG,1644783453
Chetwayi,10.5333,76.05,26.65,78,69,2.71,IN,1644783454
Darnah,32.767,22.6367,13.28,69,0,4.35,LY,1644783454
Taiyuan,37.8694,112.5603,-4.08,30,0,4.0,CN,1644783454
Merauke,-8.4667,140.3333,25.71,82,24,4.03,ID,1644783454
Hatsukaichi,34.35,132.3333,6.98,28,100,1.34,JP,1644783455
Wufeng,27.45,104.8333,0.55,94,31,0.47,CN,1644783455
Harper,4.375,-7.7169,25.83,83,54,3.41,LR,1644783455
Nador,35.174,-2.9287,12.14,76,0,1.03,MA,1644783455
Gimli,50.6336,-96.9907,-18.82,97,100,7.63,CA,1644783213
Mahrīz,31.5917,54.4318,5.28,51,0,1.46,IR,1644783456
